[{"id": "RtTKpizyprsikcyrLIN91g", "alias": "spices-of-india-williamsville", "name": "Spices of India", "image_url": "https://s3-media4.fl.yelpcdn.com/bphoto/Dth9LKYZatI6kmxc7sXl-Q/o.jpg", "is_closed": false, "url": "https://www.yelp.com/biz/spices-of-india-williamsville?adjust_creative=KzWdp4_RAssZkVjXE6C7gw&utm_campaign=yelp_api_v3&utm_medium=api_v3_business_search&utm_source=KzWdp4_RAssZkVjXE6C7gw", "review_count": 245, "categories": [{"alias": "indpak", "title": "Indian"}, {"alias": "buffets", "title": "Buffets"}], "rating": 4.5, "coordinates": {"latitude": 42.97647, "longitude": -78.74035}, "transactions": ["delivery", "pickup"], "price": "$$", "location": {"address1": "438 Evans St", "address2": "", "address3": "", "city": "Williamsville", "zip_code": "14221", "country": "US", "state": "NY", "display_address": ["438 Evans St", "Williamsville, NY 14221"]}, "phone": "+17166334800", "display_phone": "(716) 633-4800", "distance": 8061.15605633098}, {"id": "2Ibo1K9Gl9laMWV_obOAHQ", "alias": "clay-handi-buffalo", "name": "Clay Handi", "image_url": "https://s3-media1.fl.yelpcdn.com/bphoto/FCIifk9TZXYZc3NdtLOx5A/o.jpg", "is_closed": false, "url": "https://www.yelp.com/biz/clay-handi-buffalo?adjust_creative=KzWdp4_RAssZkVjXE6C7gw&utm_campaign=yelp_api_v3&utm_medium=api_v3_business_search&utm_source=KzWdp4_RAssZkVjXE6C7gw", "review_count": 238, "categories": [{"alias": "halal", "title": "Halal"}, {"alias": "pakistani", "title": "Pakistani"}, {"alias": "indpak", "title": "Indian"}], "rating": 4.0, "coordinates": {"latitude": 42.9673, "longitude": -78.87097}, "transactions": ["delivery", "pickup"], "price": "$$", "location": {"address1": "3054 Delaware Ave", "address2": null, "address3": "", "city": "Buffalo", "zip_code": "14217", "country": "US", "state": "NY", "display_address": ["3054 Delaware Ave", "Buffalo, NY 14217"]}, "phone": "+17168777797", "display_phone": "(716) 877-7797", "distance": 6486.3886982426975}, {"id": "PmALs1uAHxgKGE_RpGO2ow", "alias": "nellai-banana-leaf-williamsville", "name": "Nellai Banana Leaf", "image_url": "https://s3-media4.fl.yelpcdn.com/bphoto/nOx3ZktBup4QPfB8wpMa3A/o.jpg", "is_closed": false, "url": "https://www.yelp.com/biz/nellai-banana-leaf-williamsville?adjust_creative=KzWdp4_RAssZkVjXE6C7gw&utm_campaign=yelp_api_v3&utm_medium=api_v3_business_search&utm_source=KzWdp4_RAssZkVjXE6C7gw", "review_count": 129, "categories": [{"alias": "indpak", "title": "Indian"}], "rating": 4.0, "coordinates": {"latitude": 42.964751, "longitude": -78.695415}, "transactions": ["delivery", "pickup"], "price": "$$", "location": {"address1": "4303 Transit Rd", "address2": "", "address3": null, "city": "Williamsville", "zip_code": "14221", "country": "US", "state": "NY", "display_address": ["4303 Transit Rd", "Williamsville, NY 14221"]}, "phone": "+17162763786", "display_phone": "(716) 276-3786", "distance": 10461.945244273}, {"id": "LkTReC8TUScW-wsFMa6KJQ", "alias": "taj-grill-buffalo", "name": "Taj Grill", "image_url": "https://s3-media4.fl.yelpcdn.com/bphoto/iIuxJcjTXc8GrkCBYR3lng/o.jpg", "is_closed": false, "url": "https://www.yelp.com/biz/taj-grill-buffalo?adjust_creative=KzWdp4_RAssZkVjXE6C7gw&utm_campaign=yelp_api_v3&utm_medium=api_v3_business_search&utm_source=KzWdp4_RAssZkVjXE6C7gw", "review_count": 348, "categories": [{"alias": "indpak", "title": "Indian"}, {"alias": "buffets", "title": "Buffets"}, {"alias": "seafood", "title": "Seafood"}], "rating": 4.0, "coordinates": {"latitude": 42.9461, "longitude": -78.86899}, "transactions": ["delivery", "pickup"], "price": "$$", "location": {"address1": "2290 Delaware Ave", "address2": "", "address3": "", "city": "Buffalo", "zip_code": "14216", "country": "US", "state": "NY", "display_address": ["2290 Delaware Ave", "Buffalo, NY 14216"]}, "phone": "+17168751000", "display_phone": "(716) 875-1000", "distance": 5009.389486160001}, {"id": "5s_kMLz3IwtjbdZZK_FrxQ", "alias": "zaika-indian-cuisine-and-bar-niagara-falls", "name": "Zaika Indian Cuisine & Bar", "image_url": "https://s3-media1.fl.yelpcdn.com/bphoto/WeVa3wXstE5Ytu6mpGN7_Q/o.jpg", "is_closed": false, "url": "https://www.yelp.com/biz/zaika-indian-cuisine-and-bar-niagara-falls?adjust_creative=KzWdp4_RAssZkVjXE6C7gw&utm_campaign=yelp_api_v3&utm_medium=api_v3_business_search&utm_source=KzWdp4_RAssZkVjXE6C7gw", "review_count": 722, "categories": [{"alias": "indpak", "title": "Indian"}, {"alias": "halal", "title": "Halal"}], "rating": 4.0, "coordinates": {"latitude": 43.08913, "longitude": -79.05889}, "transactions": ["delivery", "pickup"], "price": "$$", "location": {"address1": "421 3rd St", "address2": "", "address3": "", "city": "Niagara Falls", "zip_code": "14301", "country": "US", "state": "NY", "display_address": ["421 3rd St", "Niagara Falls, NY 14301"]}, "phone": "+17168040444", "display_phone": "(716) 804-0444", "distance": 26906.411960879555}, {"id": "ooFD3OWD55Y8UhIVuDdq_g", "alias": "naan-tastic-amherst", "name": "Naan-Tastic", "image_url": "https://s3-media1.fl.yelpcdn.com/bphoto/Z1rNtjMFxJWkBwE9cI2Fmg/o.jpg", "is_closed": false, "url": "https://www.yelp.com/biz/naan-tastic-amherst?adjust_creative=KzWdp4_RAssZkVjXE6C7gw&utm_campaign=yelp_api_v3&utm_medium=api_v3_business_search&utm_source=KzWdp4_RAssZkVjXE6C7gw", "review_count": 245, "categories": [{"alias": "indpak", "title": "Indian"}], "rating": 4.5, "coordinates": {"latitude": 42.999283, "longitude": -78.819857}, "transactions": ["delivery", "pickup"], "price": "$$", "location": {"address1": "1595 Niagara Falls Blvd", "address2": "Ste 700", "address3": "The Boulevard Consumer Square", "city": "Amherst", "zip_code": "14226", "country": "US", "state": "NY", "display_address": ["1595 Niagara Falls Blvd", "Ste 700", "The Boulevard Consumer Square", "Amherst, NY 14226"]}, "phone": "+17162598086", "display_phone": "(716) 259-8086", "distance": 8047.7413322899}, {"id": "nTm20ZEsVE7s2XzHUdtQcA", "alias": "dosa-place-niagara-falls", "name": "Dosa Place", "image_url": "https://s3-media4.fl.yelpcdn.com/bphoto/fxVb5B_0C7FL32GpD7EgWw/o.jpg", "is_closed": false, "url": "https://www.yelp.com/biz/dosa-place-niagara-falls?adjust_creative=KzWdp4_RAssZkVjXE6C7gw&utm_campaign=yelp_api_v3&utm_medium=api_v3_business_search&utm_source=KzWdp4_RAssZkVjXE6C7gw", "review_count": 100, "categories": [{"alias": "indpak", "title": "Indian"}, {"alias": "vegetarian", "title": "Vegetarian"}], "rating": 4.0, "coordinates": {"latitude": 43.0964683, "longitude": -79.0394993}, "transactions": ["delivery", "pickup"], "price": "$$", "location": {"address1": "745 E Market St", "address2": "", "address3": "", "city": "Niagara Falls", "zip_code": "14301", "country": "US", "state": "NY", "display_address": ["745 E Market St", "Niagara Falls, NY 14301"]}, "phone": "+17165242144", "display_phone": "(716) 524-2144", "distance": 26332.115120087747}, {"id": "9Y3Qi78W8QjmTI8KF0n4Hw", "alias": "india-star-buffalo", "name": "India Star", "image_url": "https://s3-media1.fl.yelpcdn.com/bphoto/B8W3bFEcM9huEwE3WcAv4A/o.jpg", "is_closed": false, "url": "https://www.yelp.com/biz/india-star-buffalo?adjust_creative=KzWdp4_RAssZkVjXE6C7gw&utm_campaign=yelp_api_v3&utm_medium=api_v3_business_search&utm_source=KzWdp4_RAssZkVjXE6C7gw", "review_count": 135, "categories": [{"alias": "indpak", "title": "Indian"}], "rating": 4.0, "coordinates": {"latitude": 42.9706199, "longitude": -78.87072}, "transactions": ["delivery", "pickup"], "price": "$$", "location": {"address1": "3167 Delaware Ave", "address2": "", "address3": "", "city": "Buffalo", "zip_code": "14217", "country": "US", "state": "NY", "display_address": ["3167 Delaware Ave", "Buffalo, NY 14217"]}, "phone": "+17164474388", "display_phone": "(716) 447-4388", "distance": 6730.957520751652}, {"id": "QZNNp07uhleoyF95CniUBA", "alias": "taste-of-india-buffalo", "name": "Taste Of India", "image_url": "https://s3-media4.fl.yelpcdn.com/bphoto/mYoH9nQxYP-Kv_bVcv3HTg/o.jpg", "is_closed": false, "url": "https://www.yelp.com/biz/taste-of-india-buffalo?adjust_creative=KzWdp4_RAssZkVjXE6C7gw&utm_campaign=yelp_api_v3&utm_medium=api_v3_business_search&utm_source=KzWdp4_RAssZkVjXE6C7gw", "review_count": 168, "categories": [{"alias": "indpak", "title": "Indian"}], "rating": 3.5, "coordinates": {"latitude": 42.9810388246584, "longitude": -78.8152478269836}, "transactions": ["delivery", "pickup"], "price": "$$", "location": {"address1": "3192 Sheridan Dr", "address2": "", "address3": "", "city": "Buffalo", "zip_code": "14226", "country": "US", "state": "NY", "display_address": ["3192 Sheridan Dr", "Buffalo, NY 14226"]}, "phone": "+17168370460", "display_phone": "(716) 837-0460", "distance": 6001.896630318156}, {"id": "lWNyU2cg66akSeKKEXAsSA", "alias": "cheetal-indian-cuisine-and-buffet-niagara-falls", "name": "Cheetal Indian Cuisine & Buffet", "image_url": "https://s3-media3.fl.yelpcdn.com/bphoto/s-k8FiBi1MWC0QRi-8Xguw/o.jpg", "is_closed": false, "url": "https://www.yelp.com/biz/cheetal-indian-cuisine-and-buffet-niagara-falls?adjust_creative=KzWdp4_RAssZkVjXE6C7gw&utm_campaign=yelp_api_v3&utm_medium=api_v3_business_search&utm_source=KzWdp4_RAssZkVjXE6C7gw", "review_count": 169, "categories": [{"alias": "indpak", "title": "Indian"}], "rating": 4.0, "coordinates": {"latitude": 43.0884799, "longitude": -79.08214}, "transactions": [], "price": "$$", "location": {"address1": "5951 Clark Avenue", "address2": "", "address3": "", "city": "Niagara Falls", "zip_code": "L2G 3W3", "country": "CA", "state": "ON", "display_address": ["5951 Clark Avenue", "Niagara Falls, ON L2G 3W3", "Canada"]}, "phone": "+19053539997", "display_phone": "+1 905-353-9997", "distance": 28295.877777115067}, {"id": "qDR3YdXzlC0LJ--TfaAn0Q", "alias": "tandoori-hut-buffalo", "name": "Tandoori Hut", "image_url": "https://s3-media2.fl.yelpcdn.com/bphoto/yu4MQRHBOxKQBUNPyhdAAA/o.jpg", "is_closed": false, "url": "https://www.yelp.com/biz/tandoori-hut-buffalo?adjust_creative=KzWdp4_RAssZkVjXE6C7gw&utm_campaign=yelp_api_v3&utm_medium=api_v3_business_search&utm_source=KzWdp4_RAssZkVjXE6C7gw", "review_count": 135, "categories": [{"alias": "indpak", "title": "Indian"}, {"alias": "buffets", "title": "Buffets"}], "rating": 4.5, "coordinates": {"latitude": 42.9503, "longitude": -78.82626}, "transactions": ["delivery", "pickup"], "price": "$$", "location": {"address1": "3171 Main St", "address2": "", "address3": null, "city": "Buffalo", "zip_code": "14214", "country": "US", "state": "NY", "display_address": ["3171 Main St", "Buffalo, NY 14214"]}, "phone": "+17169319343", "display_phone": "(716) 931-9343", "distance": 2800.6276982662966}, {"id": "wWXIzTd8LtJpDaS32qxgzA", "alias": "india-gate-buffalo", "name": "India Gate", "image_url": "https://s3-media1.fl.yelpcdn.com/bphoto/aU943xaMiE8G4SEJtx9URg/o.jpg", "is_closed": false, "url": "https://www.yelp.com/biz/india-gate-buffalo?adjust_creative=KzWdp4_RAssZkVjXE6C7gw&utm_campaign=yelp_api_v3&utm_medium=api_v3_business_search&utm_source=KzWdp4_RAssZkVjXE6C7gw", "review_count": 168, "categories": [{"alias": "indpak", "title": "Indian"}], "rating": 4.0, "coordinates": {"latitude": 42.927646, "longitude": -78.877204}, "transactions": ["delivery", "pickup"], "price": "$$", "location": {"address1": "1116 Elmwood Ave", "address2": "", "address3": "", "city": "Buffalo", "zip_code": "14222", "country": "US", "state": "NY", "display_address": ["1116 Elmwood Ave", "Buffalo, NY 14222"]}, "phone": "+17168864000", "display_phone": "(716) 886-4000", "distance": 5213.833361091554}, {"id": "yf9c7j43E9nxfk32MG886g", "alias": "shiv-kirti-chef-of-india-niagara-falls", "name": "Shiv Kirti Chef of India", "image_url": "https://s3-media1.fl.yelpcdn.com/bphoto/7MLOxBHDNTC7HIE-GLM5vA/o.jpg", "is_closed": false, "url": "https://www.yelp.com/biz/shiv-kirti-chef-of-india-niagara-falls?adjust_creative=KzWdp4_RAssZkVjXE6C7gw&utm_campaign=yelp_api_v3&utm_medium=api_v3_business_search&utm_source=KzWdp4_RAssZkVjXE6C7gw", "review_count": 51, "categories": [{"alias": "indpak", "title": "Indian"}], "rating": 3.5, "coordinates": {"latitude": 43.09113, "longitude": -79.08037}, "transactions": [], "price": "$$", "location": {"address1": "5060 Magdalen Street", "address2": null, "address3": "", "city": "Niagara Falls", "zip_code": "L2G 3S4", "country": "CA", "state": "ON", "display_address": ["5060 Magdalen Street", "Niagara Falls, ON L2G 3S4", "Canada"]}, "phone": "+19053712433", "display_phone": "+1 905-371-2433", "distance": 28367.68042558397}, {"id": "w_-ubE2M3R38-QhZ1nj4NA", "alias": "hyderabad-biryani-house-williamsville", "name": "Hyderabad Biryani House", "image_url": "https://s3-media3.fl.yelpcdn.com/bphoto/W7PKll5ij2zx4PyIvOl2YA/o.jpg", "is_closed": false, "url": "https://www.yelp.com/biz/hyderabad-biryani-house-williamsville?adjust_creative=KzWdp4_RAssZkVjXE6C7gw&utm_campaign=yelp_api_v3&utm_medium=api_v3_business_search&utm_source=KzWdp4_RAssZkVjXE6C7gw", "review_count": 95, "categories": [{"alias": "indpak", "title": "Indian"}], "rating": 3.5, "coordinates": {"latitude": 42.997027, "longitude": -78.695852}, "transactions": ["delivery", "pickup"], "price": "$$", "location": {"address1": "5445 Transit Rd", "address2": null, "address3": "", "city": "Williamsville", "zip_code": "14221", "country": "US", "state": "NY", "display_address": ["5445 Transit Rd", "Williamsville, NY 14221"]}, "phone": "+17166362255", "display_phone": "(716) 636-2255", "distance": 12325.744211288064}, {"id": "TxNwfTsTJfsofD5Phd0G7A", "alias": "desi-khabba-buffalo", "name": "Desi Khabba", "image_url": "https://s3-media2.fl.yelpcdn.com/bphoto/52X70NTzUjnlMCL9zzyvXw/o.jpg", "is_closed": false, "url": "https://www.yelp.com/biz/desi-khabba-buffalo?adjust_creative=KzWdp4_RAssZkVjXE6C7gw&utm_campaign=yelp_api_v3&utm_medium=api_v3_business_search&utm_source=KzWdp4_RAssZkVjXE6C7gw", "review_count": 50, "categories": [{"alias": "pakistani", "title": "Pakistani"}, {"alias": "indpak", "title": "Indian"}, {"alias": "halal", "title": "Halal"}], "rating": 4.5, "coordinates": {"latitude": 42.90059, "longitude": -78.84436}, "transactions": ["delivery", "pickup"], "price": "$", "location": {"address1": "898 Genesee St", "address2": "", "address3": "", "city": "Buffalo", "zip_code": "14211", "country": "US", "state": "NY", "display_address": ["898 Genesee St", "Buffalo, NY 14211"]}, "phone": "+17167684818", "display_phone": "(716) 768-4818", "distance": 3902.1130219169695}, {"id": "mmchBOapwuuMfHY63Uyz9A", "alias": "kabab-and-curry-williamsville-2", "name": "Kabab & Curry", "image_url": "https://s3-media2.fl.yelpcdn.com/bphoto/1CzGUN7jXkqWtAEj9JcCjA/o.jpg", "is_closed": false, "url": "https://www.yelp.com/biz/kabab-and-curry-williamsville-2?adjust_creative=KzWdp4_RAssZkVjXE6C7gw&utm_campaign=yelp_api_v3&utm_medium=api_v3_business_search&utm_source=KzWdp4_RAssZkVjXE6C7gw", "review_count": 295, "categories": [{"alias": "indpak", "title": "Indian"}, {"alias": "pakistani", "title": "Pakistani"}, {"alias": "halal", "title": "Halal"}], "rating": 4.0, "coordinates": {"latitude": 42.96451053498682, "longitude": -78.6791934}, "transactions": ["delivery", "pickup"], "price": "$$", "location": {"address1": "8445 Main St", "address2": "", "address3": "", "city": "Williamsville", "zip_code": "14221", "country": "US", "state": "NY", "display_address": ["8445 Main St", "Williamsville, NY 14221"]}, "phone": "+17165653822", "display_phone": "(716) 565-3822", "distance": 11672.178079284378}, {"id": "HYS7gyBPjs8e1dgYG_za2A", "alias": "dosa-hut-fine-indian-cuisine-niagara-falls-3", "name": "Dosa Hut Fine Indian Cuisine", "image_url": "https://s3-media1.fl.yelpcdn.com/bphoto/dUifZwadQCd2eKxHQWng8g/o.jpg", "is_closed": false, "url": "https://www.yelp.com/biz/dosa-hut-fine-indian-cuisine-niagara-falls-3?adjust_creative=KzWdp4_RAssZkVjXE6C7gw&utm_campaign=yelp_api_v3&utm_medium=api_v3_business_search&utm_source=KzWdp4_RAssZkVjXE6C7gw", "review_count": 60, "categories": [{"alias": "indpak", "title": "Indian"}, {"alias": "foodtrucks", "title": "Food Trucks"}], "rating": 3.5, "coordinates": {"latitude": 43.08423, "longitude": -79.05992}, "transactions": ["delivery"], "price": "$$", "location": {"address1": "222 Rainbow Blvd", "address2": null, "address3": "", "city": "Niagara Falls", "zip_code": "14303", "country": "US", "state": "NY", "display_address": ["222 Rainbow Blvd", "Niagara Falls, NY 14303"]}, "phone": "+17164173117", "display_phone": "(716) 417-3117", "distance": 26924.877131957594}, {"id": "ufG9MJH3jZDGo3EWKmHToA", "alias": "india-gate-buffalo-2", "name": "India Gate", "image_url": "https://s3-media3.fl.yelpcdn.com/bphoto/ahROUmIOoguSfG0k2RVJbw/o.jpg", "is_closed": false, "url": "https://www.yelp.com/biz/india-gate-buffalo-2?adjust_creative=KzWdp4_RAssZkVjXE6C7gw&utm_campaign=yelp_api_v3&utm_medium=api_v3_business_search&utm_source=KzWdp4_RAssZkVjXE6C7gw", "review_count": 22, "categories": [{"alias": "indpak", "title": "Indian"}, {"alias": "buffets", "title": "Buffets"}], "rating": 4.5, "coordinates": {"latitude": 42.94795, "longitude": -78.86122}, "transactions": ["delivery", "pickup"], "price": "$$", "location": {"address1": "1264 Hertel Ave", "address2": null, "address3": "", "city": "Buffalo", "zip_code": "14216", "country": "US", "state": "NY", "display_address": ["1264 Hertel Ave", "Buffalo, NY 14216"]}, "phone": "+17168733333", "display_phone": "(716) 873-3333", "distance": 4549.242819495482}, {"id": "wQl07iF2BUhk1ARgW0Urag", "alias": "buffalo-tikka-house-buffalo", "name": "Buffalo Tikka House", "image_url": "https://s3-media3.fl.yelpcdn.com/bphoto/Oz2AtIKP3wxgymmBpQbVCQ/o.jpg", "is_closed": false, "url": "https://www.yelp.com/biz/buffalo-tikka-house-buffalo?adjust_creative=KzWdp4_RAssZkVjXE6C7gw&utm_campaign=yelp_api_v3&utm_medium=api_v3_business_search&utm_source=KzWdp4_RAssZkVjXE6C7gw", "review_count": 121, "categories": [{"alias": "halal", "title": "Halal"}, {"alias": "indpak", "title": "Indian"}, {"alias": "bangladeshi", "title": "Bangladeshi"}], "rating": 4.5, "coordinates": {"latitude": 42.89962095469107, "longitude": -78.87004494667053}, "transactions": ["delivery", "pickup"], "location": {"address1": "948 Main St", "address2": null, "address3": "", "city": "Buffalo", "zip_code": "14202", "country": "US", "state": "NY", "display_address": ["948 Main St", "Buffalo, NY 14202"]}, "phone": "+17162409324", "display_phone": "(716) 240-9324", "distance": 5547.724367521713}, {"id": "-kqemI_v9d2d1wUTtYC4Mw", "alias": "delhi-palace-of-buffalo-tonawanda", "name": "Delhi Palace Of Buffalo", "image_url": "https://s3-media1.fl.yelpcdn.com/bphoto/gZT6aBUTjrtC1Fs9gikPVQ/o.jpg", "is_closed": false, "url": "https://www.yelp.com/biz/delhi-palace-of-buffalo-tonawanda?adjust_creative=KzWdp4_RAssZkVjXE6C7gw&utm_campaign=yelp_api_v3&utm_medium=api_v3_business_search&utm_source=KzWdp4_RAssZkVjXE6C7gw", "review_count": 16, "categories": [{"alias": "indpak", "title": "Indian"}, {"alias": "bangladeshi", "title": "Bangladeshi"}], "rating": 5.0, "coordinates": {"latitude": 42.98049, "longitude": -78.89532}, "transactions": ["delivery", "pickup"], "location": {"address1": "1051 Sheridan Dr", "address2": "", "address3": null, "city": "Tonawanda", "zip_code": "14150", "country": "US", "state": "NY", "display_address": ["1051 Sheridan Dr", "Tonawanda, NY 14150"]}, "phone": "+15186543169", "display_phone": "(518) 654-3169", "distance": 8944.774208463143}, {"id": "ra6Kf4a4fJT-Cs3hOk_xpQ", "alias": "heart-of-india-amherst-2", "name": "Heart Of India", "image_url": "https://s3-media1.fl.yelpcdn.com/bphoto/M8Ipqgd20fOsXwH2O3BAtw/o.jpg", "is_closed": false, "url": "https://www.yelp.com/biz/heart-of-india-amherst-2?adjust_creative=KzWdp4_RAssZkVjXE6C7gw&utm_campaign=yelp_api_v3&utm_medium=api_v3_business_search&utm_source=KzWdp4_RAssZkVjXE6C7gw", "review_count": 53, "categories": [{"alias": "indpak", "title": "Indian"}], "rating": 4.0, "coordinates": {"latitude": 42.959668303075595, "longitude": -78.81844200204492}, "transactions": ["pickup", "delivery"], "location": {"address1": "3500 Main St", "address2": "Ste 370", "address3": null, "city": "Amherst", "zip_code": "14226", "country": "US", "state": "NY", "display_address": ["3500 Main St", "Ste 370", "Amherst, NY 14226"]}, "phone": "+17163422004", "display_phone": "(716) 342-2004", "distance": 3648.53705610968}, {"id": "d2YzY2SPTYqoHUjC9o1rsw", "alias": "shalimar-bbq-and-grill-williamsville", "name": "Shalimar BBQ & Grill", "image_url": "https://s3-media4.fl.yelpcdn.com/bphoto/93knZOlnqeU8Zoixl_d8eg/o.jpg", "is_closed": false, "url": "https://www.yelp.com/biz/shalimar-bbq-and-grill-williamsville?adjust_creative=KzWdp4_RAssZkVjXE6C7gw&utm_campaign=yelp_api_v3&utm_medium=api_v3_business_search&utm_source=KzWdp4_RAssZkVjXE6C7gw", "review_count": 14, "categories": [{"alias": "indpak", "title": "Indian"}, {"alias": "halal", "title": "Halal"}, {"alias": "pakistani", "title": "Pakistani"}], "rating": 5.0, "coordinates": {"latitude": 43.00066, "longitude": -78.74083}, "transactions": ["pickup", "delivery"], "location": {"address1": "224 Plaza Dr", "address2": "Ste A", "address3": null, "city": "Williamsville", "zip_code": "14221", "country": "US", "state": "NY", "display_address": ["224 Plaza Dr", "Ste A", "Williamsville, NY 14221"]}, "phone": "+17166360250", "display_phone": "(716) 636-0250", "distance": 10163.043006741731}, {"id": "JrDOpnASS-STZL8xuZwm5w", "alias": "ruchi-garden-tonawanda", "name": "Ruchi Garden", "image_url": "https://s3-media2.fl.yelpcdn.com/bphoto/GzsFXCJH4oWh9cb1LJitEw/o.jpg", "is_closed": false, "url": "https://www.yelp.com/biz/ruchi-garden-tonawanda?adjust_creative=KzWdp4_RAssZkVjXE6C7gw&utm_campaign=yelp_api_v3&utm_medium=api_v3_business_search&utm_source=KzWdp4_RAssZkVjXE6C7gw", "review_count": 13, "categories": [{"alias": "indpak", "title": "Indian"}, {"alias": "halal", "title": "Halal"}, {"alias": "bangladeshi", "title": "Bangladeshi"}], "rating": 5.0, "coordinates": {"latitude": 42.9587, "longitude": -78.843}, "transactions": ["pickup", "delivery"], "location": {"address1": "687 Kenmore Ave", "address2": null, "address3": "", "city": "Tonawanda", "zip_code": "14223", "country": "US", "state": "NY", "display_address": ["687 Kenmore Ave", "Tonawanda, NY 14223"]}, "phone": "+17169392027", "display_phone": "(716) 939-2027", "distance": 4286.341572205085}, {"id": "yGnZo6Rl-3JKl0toVQZufg", "alias": "inchins-bamboo-garden-williamsville-2", "name": "Inchin's Bamboo Garden", "image_url": "https://s3-media4.fl.yelpcdn.com/bphoto/TY9YfEwHTFuxpnNDIIttyA/o.jpg", "is_closed": false, "url": "https://www.yelp.com/biz/inchins-bamboo-garden-williamsville-2?adjust_creative=KzWdp4_RAssZkVjXE6C7gw&utm_campaign=yelp_api_v3&utm_medium=api_v3_business_search&utm_source=KzWdp4_RAssZkVjXE6C7gw", "review_count": 80, "categories": [{"alias": "indpak", "title": "Indian"}, {"alias": "chinese", "title": "Chinese"}, {"alias": "asianfusion", "title": "Asian Fusion"}], "rating": 4.0, "coordinates": {"latitude": 42.977493, "longitude": -78.734089}, "transactions": ["delivery"], "price": "$$", "location": {"address1": "5415 Sheridan Dr", "address2": "", "address3": null, "city": "Williamsville", "zip_code": "14221", "country": "US", "state": "NY", "display_address": ["5415 Sheridan Dr", "Williamsville, NY 14221"]}, "phone": "+17165803032", "display_phone": "(716) 580-3032", "distance": 8568.169326576579}, {"id": "2wyFOWeNoGCc5J0abntV6w", "alias": "the-grand-buffet-niagara-falls", "name": "The Grand Buffet", "image_url": "https://s3-media1.fl.yelpcdn.com/bphoto/rxeCOXuhQWMJFN9JHdsG4w/o.jpg", "is_closed": false, "url": "https://www.yelp.com/biz/the-grand-buffet-niagara-falls?adjust_creative=KzWdp4_RAssZkVjXE6C7gw&utm_campaign=yelp_api_v3&utm_medium=api_v3_business_search&utm_source=KzWdp4_RAssZkVjXE6C7gw", "review_count": 132, "categories": [{"alias": "buffets", "title": "Buffets"}], "rating": 3.0, "coordinates": {"latitude": 43.083235, "longitude": -79.079877}, "transactions": [], "price": "$$", "location": {"address1": "Fallsview Casino Resort", "address2": "6380 Fallsview Boulevard", "address3": "", "city": "Niagara Falls", "zip_code": "L2E 3G4", "country": "CA", "state": "ON", "display_address": ["Fallsview Casino Resort", "6380 Fallsview Boulevard", "Niagara Falls, ON L2E 3G4", "Canada"]}, "phone": "+18883255788", "display_phone": "+1 888-325-5788", "distance": 27781.701506256933}, {"id": "Ng3kdQ6kHsIWxRrKFx0oeQ", "alias": "alibaba-kebab-buffalo", "name": "Alibaba Kebab", "image_url": "https://s3-media3.fl.yelpcdn.com/bphoto/xnFmEoqY9IggQp74zKP9xw/o.jpg", "is_closed": false, "url": "https://www.yelp.com/biz/alibaba-kebab-buffalo?adjust_creative=KzWdp4_RAssZkVjXE6C7gw&utm_campaign=yelp_api_v3&utm_medium=api_v3_business_search&utm_source=KzWdp4_RAssZkVjXE6C7gw", "review_count": 169, "categories": [{"alias": "kebab", "title": "Kebab"}, {"alias": "halal", "title": "Halal"}, {"alias": "indpak", "title": "Indian"}], "rating": 4.5, "coordinates": {"latitude": 42.88516, "longitude": -78.8382}, "transactions": ["pickup", "delivery"], "price": "$", "location": {"address1": "900 William St", "address2": null, "address3": "", "city": "Buffalo", "zip_code": "14206", "country": "US", "state": "NY", "display_address": ["900 William St", "Buffalo, NY 14206"]}, "phone": "+17168002222", "display_phone": "(716) 800-2222", "distance": 5087.30135319237}, {"id": "3paYD3DQex7TonfIwX_qhg", "alias": "moksha-indian-bistro-niagara-falls", "name": "Moksha Indian Bistro", "image_url": "https://s3-media3.fl.yelpcdn.com/bphoto/zWv3mqxb5AAVFd3EUXI4GA/o.jpg", "is_closed": false, "url": "https://www.yelp.com/biz/moksha-indian-bistro-niagara-falls?adjust_creative=KzWdp4_RAssZkVjXE6C7gw&utm_campaign=yelp_api_v3&utm_medium=api_v3_business_search&utm_source=KzWdp4_RAssZkVjXE6C7gw", "review_count": 239, "categories": [{"alias": "indpak", "title": "Indian"}, {"alias": "vegan", "title": "Vegan"}, {"alias": "halal", "title": "Halal"}], "rating": 3.5, "coordinates": {"latitude": 43.0879, "longitude": -79.08525}, "transactions": [], "price": "$$", "location": {"address1": "5993 Stanley Avenue", "address2": null, "address3": "", "city": "Niagara Falls", "zip_code": "L2G 3Y2", "country": "CA", "state": "ON", "display_address": ["5993 Stanley Avenue", "Niagara Falls, ON L2G 3Y2", "Canada"]}, "phone": "+19053548585", "display_phone": "+1 905-354-8585", "distance": 28438.280177461325}, {"id": "EQTzCNZgrgT3lYOJhkvpcQ", "alias": "indian-spice-house-buffalo", "name": "Indian Spice House", "image_url": "https://s3-media3.fl.yelpcdn.com/bphoto/dKqarIuTuQdm8-0PIVaeUA/o.jpg", "is_closed": false, "url": "https://www.yelp.com/biz/indian-spice-house-buffalo?adjust_creative=KzWdp4_RAssZkVjXE6C7gw&utm_campaign=yelp_api_v3&utm_medium=api_v3_business_search&utm_source=KzWdp4_RAssZkVjXE6C7gw", "review_count": 14, "categories": [{"alias": "indpak", "title": "Indian"}], "rating": 4.0, "coordinates": {"latitude": 42.89167, "longitude": -78.87399}, "transactions": ["pickup", "delivery"], "location": {"address1": "452 Pearl St", "address2": null, "address3": null, "city": "Buffalo", "zip_code": "14202", "country": "US", "state": "NY", "display_address": ["452 Pearl St", "Buffalo, NY 14202"]}, "phone": "+17162598001", "display_phone": "(716) 259-8001", "distance": 6327.704742005827}, {"id": "25gvFASO15BMNatmQeFXqg", "alias": "madras-cafe-niagara-falls", "name": "Madras Cafe", "image_url": "https://s3-media1.fl.yelpcdn.com/bphoto/AK8f6lnoMhXHK3zYbZgQ1w/o.jpg", "is_closed": false, "url": "https://www.yelp.com/biz/madras-cafe-niagara-falls?adjust_creative=KzWdp4_RAssZkVjXE6C7gw&utm_campaign=yelp_api_v3&utm_medium=api_v3_business_search&utm_source=KzWdp4_RAssZkVjXE6C7gw", "review_count": 13, "categories": [{"alias": "indpak", "title": "Indian"}], "rating": 3.0, "coordinates": {"latitude": 43.08929, "longitude": -79.0589}, "transactions": [], "location": {"address1": "427 3rd St", "address2": null, "address3": "", "city": "Niagara Falls", "zip_code": "14301", "country": "US", "state": "NY", "display_address": ["427 3rd St", "Niagara Falls, NY 14301"]}, "phone": "+17162058844", "display_phone": "(716) 205-8844", "distance": 26920.45456230292}, {"id": "uGWQP6jaX4GiPdGP1nLV8w", "alias": "bollywood-bistro-buffalo", "name": "Bollywood Bistro", "image_url": "https://s3-media3.fl.yelpcdn.com/bphoto/clk1j22t1O279U5_t7cwaA/o.jpg", "is_closed": false, "url": "https://www.yelp.com/biz/bollywood-bistro-buffalo?adjust_creative=KzWdp4_RAssZkVjXE6C7gw&utm_campaign=yelp_api_v3&utm_medium=api_v3_business_search&utm_source=KzWdp4_RAssZkVjXE6C7gw", "review_count": 19, "categories": [{"alias": "indpak", "title": "Indian"}], "rating": 3.0, "coordinates": {"latitude": 43.00202380394721, "longitude": -78.78427932945625}, "transactions": ["pickup", "delivery"], "price": "$$", "location": {"address1": "520 Lee Entrance", "address2": "Ste 104", "address3": null, "city": "Buffalo", "zip_code": "14228", "country": "US", "state": "NY", "display_address": ["520 Lee Entrance", "Ste 104", "Buffalo, NY 14228"]}, "phone": "+17166893986", "display_phone": "(716) 689-3986", "distance": 8658.218632694674}, {"id": "rf9fn1UmmyVJ-_C7W5OfSA", "alias": "virsa-fine-indian-cuisine-niagara-falls", "name": "Virsa Fine Indian Cuisine", "image_url": "https://s3-media2.fl.yelpcdn.com/bphoto/cF_VUpADqp_1AW4-Dzm2dQ/o.jpg", "is_closed": false, "url": "https://www.yelp.com/biz/virsa-fine-indian-cuisine-niagara-falls?adjust_creative=KzWdp4_RAssZkVjXE6C7gw&utm_campaign=yelp_api_v3&utm_medium=api_v3_business_search&utm_source=KzWdp4_RAssZkVjXE6C7gw", "review_count": 33, "categories": [{"alias": "indpak", "title": "Indian"}], "rating": 4.0, "coordinates": {"latitude": 43.09306, "longitude": -79.07553}, "transactions": [], "location": {"address1": "5677 Victoria Avenue", "address2": null, "address3": "", "city": "Niagara Falls", "zip_code": "L2G 3L5", "country": "CA", "state": "ON", "display_address": ["5677 Victoria Avenue", "Niagara Falls, ON L2G 3L5", "Canada"]}, "phone": "+12892965001", "display_phone": "+1 289-296-5001", "distance": 28171.509744841118}, {"id": "0u5GVAxbXW0CCEJtJK37qg", "alias": "dhaba-on-the-falls-niagara-falls", "name": "Dhaba On The Falls", "image_url": "https://s3-media1.fl.yelpcdn.com/bphoto/El85ze9AoTipjfH0ORndJw/o.jpg", "is_closed": false, "url": "https://www.yelp.com/biz/dhaba-on-the-falls-niagara-falls?adjust_creative=KzWdp4_RAssZkVjXE6C7gw&utm_campaign=yelp_api_v3&utm_medium=api_v3_business_search&utm_source=KzWdp4_RAssZkVjXE6C7gw", "review_count": 12, "categories": [{"alias": "indpak", "title": "Indian"}], "rating": 4.0, "coordinates": {"latitude": 43.09271, "longitude": -79.0768}, "transactions": [], "location": {"address1": "5039 Centre Street", "address2": null, "address3": "", "city": "Niagara Falls", "zip_code": "L2G 3N6", "country": "CA", "state": "ON", "display_address": ["5039 Centre Street", "Niagara Falls, ON L2G 3N6", "Canada"]}, "phone": "", "display_phone": "", "distance": 28261.595585583305}, {"id": "aaYloYNYzE25K49gFrkU9A", "alias": "good-luck-restaurant-niagara-falls-2", "name": "Good Luck Restaurant", "image_url": "https://s3-media4.fl.yelpcdn.com/bphoto/CLFrEz1xLQ9TpViqupMovw/o.jpg", "is_closed": false, "url": "https://www.yelp.com/biz/good-luck-restaurant-niagara-falls-2?adjust_creative=KzWdp4_RAssZkVjXE6C7gw&utm_campaign=yelp_api_v3&utm_medium=api_v3_business_search&utm_source=KzWdp4_RAssZkVjXE6C7gw", "review_count": 62, "categories": [{"alias": "indpak", "title": "Indian"}, {"alias": "himalayan", "title": "Himalayan/Nepalese"}], "rating": 4.0, "coordinates": {"latitude": 43.089414, "longitude": -79.058976}, "transactions": ["pickup", "delivery"], "price": "$$", "location": {"address1": "431 3rd St", "address2": "", "address3": null, "city": "Niagara Falls", "zip_code": "14301", "country": "US", "state": "NY", "display_address": ["431 3rd St", "Niagara Falls, NY 14301"]}, "phone": "+17162990002", "display_phone": "(716) 299-0002", "distance": 26929.008250975618}, {"id": "1MArUzH54ISnJYlDGeSbDg", "alias": "bengal-grill-buffalo", "name": "Bengal Grill", "image_url": "https://s3-media2.fl.yelpcdn.com/bphoto/9cYLgm4BmTFjBbvDK5F-cA/o.jpg", "is_closed": false, "url": "https://www.yelp.com/biz/bengal-grill-buffalo?adjust_creative=KzWdp4_RAssZkVjXE6C7gw&utm_campaign=yelp_api_v3&utm_medium=api_v3_business_search&utm_source=KzWdp4_RAssZkVjXE6C7gw", "review_count": 29, "categories": [{"alias": "indpak", "title": "Indian"}, {"alias": "mediterranean", "title": "Mediterranean"}, {"alias": "halal", "title": "Halal"}], "rating": 4.5, "coordinates": {"latitude": 42.96142, "longitude": -78.86963}, "transactions": ["delivery"], "location": {"address1": "2835 Delaware Ave", "address2": null, "address3": "", "city": "Buffalo", "zip_code": "14217", "country": "US", "state": "NY", "display_address": ["2835 Delaware Ave", "Buffalo, NY 14217"]}, "phone": "+17164241100", "display_phone": "(716) 424-1100", "distance": 5967.572852827557}, {"id": "kuyUkHWplFlrVmbpfINBog", "alias": "punjabi-hut-niagara-falls", "name": "Punjabi Hut", "image_url": "https://s3-media3.fl.yelpcdn.com/bphoto/_4nComarizGHfjK4kHBBCw/o.jpg", "is_closed": false, "url": "https://www.yelp.com/biz/punjabi-hut-niagara-falls?adjust_creative=KzWdp4_RAssZkVjXE6C7gw&utm_campaign=yelp_api_v3&utm_medium=api_v3_business_search&utm_source=KzWdp4_RAssZkVjXE6C7gw", "review_count": 189, "categories": [{"alias": "indpak", "title": "Indian"}], "rating": 3.0, "coordinates": {"latitude": 43.08856, "longitude": -79.06255}, "transactions": ["pickup", "delivery"], "price": "$$", "location": {"address1": "26 Niagara St", "address2": "", "address3": "", "city": "Niagara Falls", "zip_code": "14303", "country": "US", "state": "NY", "display_address": ["26 Niagara St", "Niagara Falls, NY 14303"]}, "phone": "+17162857479", "display_phone": "(716) 285-7479", "distance": 27083.78258106797}, {"id": "5H9i_hJteLX15OY4VaJznA", "alias": "taste-of-bombay-indian-restaurant-niagara-falls", "name": "Taste of Bombay Indian Restaurant", "image_url": "https://s3-media2.fl.yelpcdn.com/bphoto/OjkqT1TgaaWqzxYygMqFZg/o.jpg", "is_closed": false, "url": "https://www.yelp.com/biz/taste-of-bombay-indian-restaurant-niagara-falls?adjust_creative=KzWdp4_RAssZkVjXE6C7gw&utm_campaign=yelp_api_v3&utm_medium=api_v3_business_search&utm_source=KzWdp4_RAssZkVjXE6C7gw", "review_count": 22, "categories": [{"alias": "indpak", "title": "Indian"}, {"alias": "pakistani", "title": "Pakistani"}], "rating": 4.0, "coordinates": {"latitude": 43.08929, "longitude": -79.09063}, "transactions": [], "price": "$$", "location": {"address1": "5780 Ferry Street", "address2": "", "address3": "", "city": "Niagara Falls", "zip_code": "L2G 1S7", "country": "CA", "state": "ON", "display_address": ["5780 Ferry Street", "Niagara Falls, ON L2G 1S7", "Canada"]}, "phone": "+19053575946", "display_phone": "+1 905-357-5946", "distance": 28888.563697630012}, {"id": "W1sB2lpwXW_GBdQYNFgqZQ", "alias": "taj-of-orchard-park-orchard-park", "name": "Taj of Orchard Park", "image_url": "https://s3-media1.fl.yelpcdn.com/bphoto/msYENjmbO7dMoMrAtSeu5w/o.jpg", "is_closed": false, "url": "https://www.yelp.com/biz/taj-of-orchard-park-orchard-park?adjust_creative=KzWdp4_RAssZkVjXE6C7gw&utm_campaign=yelp_api_v3&utm_medium=api_v3_business_search&utm_source=KzWdp4_RAssZkVjXE6C7gw", "review_count": 44, "categories": [{"alias": "indpak", "title": "Indian"}], "rating": 4.5, "coordinates": {"latitude": 42.78752, "longitude": -78.74974}, "transactions": ["delivery"], "location": {"address1": "3545 N Buffalo St", "address2": "", "address3": null, "city": "Orchard Park", "zip_code": "14127", "country": "US", "state": "NY", "display_address": ["3545 N Buffalo St", "Orchard Park, NY 14127"]}, "phone": "+17166621612", "display_phone": "(716) 662-1612", "distance": 16356.222701555998}, {"id": "B-GPjwShbWD9d-aLd_XgiA", "alias": "flavors-of-india-niagara-falls", "name": "Flavors of India", "image_url": "https://s3-media2.fl.yelpcdn.com/bphoto/9ogtkm8O5vv31GgPxs-PNA/o.jpg", "is_closed": false, "url": "https://www.yelp.com/biz/flavors-of-india-niagara-falls?adjust_creative=KzWdp4_RAssZkVjXE6C7gw&utm_campaign=yelp_api_v3&utm_medium=api_v3_business_search&utm_source=KzWdp4_RAssZkVjXE6C7gw", "review_count": 49, "categories": [{"alias": "indpak", "title": "Indian"}], "rating": 4.0, "coordinates": {"latitude": 43.09491, "longitude": -78.95335}, "transactions": ["delivery"], "price": "$$", "location": {"address1": "9499 Niagara Falls Blvd", "address2": "", "address3": "", "city": "Niagara Falls", "zip_code": "14304", "country": "US", "state": "NY", "display_address": ["9499 Niagara Falls Blvd", "Niagara Falls, NY 14304"]}, "phone": "", "display_phone": "", "distance": 21870.42912139625}, {"id": "SZCiexEY_Xuwg5sxIcSaxQ", "alias": "akbor-indian-cuisine-buffalo-3", "name": "Akbor Indian Cuisine", "image_url": "https://s3-media3.fl.yelpcdn.com/bphoto/ATM-LFvMinNqeS6WpDVsug/o.jpg", "is_closed": false, "url": "https://www.yelp.com/biz/akbor-indian-cuisine-buffalo-3?adjust_creative=KzWdp4_RAssZkVjXE6C7gw&utm_campaign=yelp_api_v3&utm_medium=api_v3_business_search&utm_source=KzWdp4_RAssZkVjXE6C7gw", "review_count": 13, "categories": [{"alias": "indpak", "title": "Indian"}], "rating": 3.0, "coordinates": {"latitude": 42.89167, "longitude": -78.87399}, "transactions": ["pickup", "delivery"], "location": {"address1": "452 Pearl St", "address2": null, "address3": "", "city": "Buffalo", "zip_code": "14202", "country": "US", "state": "NY", "display_address": ["452 Pearl St", "Buffalo, NY 14202"]}, "phone": "+17168541489", "display_phone": "(716) 854-1489", "distance": 6327.704742005827}, {"id": "W5146EAibysfkhTPaOF_Yg", "alias": "m-asian-halal-foods-buffalo", "name": "M Asian Halal Foods", "image_url": "https://s3-media3.fl.yelpcdn.com/bphoto/OufUKIDuSvMVMPRLDD_biA/o.jpg", "is_closed": false, "url": "https://www.yelp.com/biz/m-asian-halal-foods-buffalo?adjust_creative=KzWdp4_RAssZkVjXE6C7gw&utm_campaign=yelp_api_v3&utm_medium=api_v3_business_search&utm_source=KzWdp4_RAssZkVjXE6C7gw", "review_count": 11, "categories": [{"alias": "halal", "title": "Halal"}], "rating": 4.5, "coordinates": {"latitude": 42.9145878553391, "longitude": -78.890306353569}, "transactions": ["pickup", "delivery"], "price": "$", "location": {"address1": "25 Grant St", "address2": "", "address3": "W Side Bazaar", "city": "Buffalo", "zip_code": "14213", "country": "US", "state": "NY", "display_address": ["25 Grant St", "W Side Bazaar", "Buffalo, NY 14213"]}, "phone": "+17164646389", "display_phone": "(716) 464-6389", "distance": 6421.174123091865}, {"id": "dBTH9R8v7zIaNJ3iUsZx0Q", "alias": "karmas-indian-restaurant-niagara-falls", "name": "Karmas Indian Restaurant", "image_url": "https://s3-media3.fl.yelpcdn.com/bphoto/Asrq6PsWyOHa2ILar_B3Hw/o.jpg", "is_closed": false, "url": "https://www.yelp.com/biz/karmas-indian-restaurant-niagara-falls?adjust_creative=KzWdp4_RAssZkVjXE6C7gw&utm_campaign=yelp_api_v3&utm_medium=api_v3_business_search&utm_source=KzWdp4_RAssZkVjXE6C7gw", "review_count": 8, "categories": [{"alias": "indpak", "title": "Indian"}], "rating": 2.5, "coordinates": {"latitude": 43.0887566, "longitude": -79.1329269}, "transactions": [], "location": {"address1": "8100 Lundys Lane", "address2": "", "address3": "", "city": "Niagara Falls", "zip_code": "L2H 1H1", "country": "CA", "state": "ON", "display_address": ["8100 Lundys Lane", "Niagara Falls, ON L2H 1H1", "Canada"]}, "phone": "+19053581988", "display_phone": "+1 905-358-1988", "distance": 31660.259646415296}, {"id": "LBI1UFrAtlZVXpUHSfEI1A", "alias": "swagat-fine-indian-cuisine-niagara-falls", "name": "Swagat - Fine Indian Cuisine", "image_url": "https://s3-media4.fl.yelpcdn.com/bphoto/iCj979LYsWm_ryAU_zQJhw/o.jpg", "is_closed": false, "url": "https://www.yelp.com/biz/swagat-fine-indian-cuisine-niagara-falls?adjust_creative=KzWdp4_RAssZkVjXE6C7gw&utm_campaign=yelp_api_v3&utm_medium=api_v3_business_search&utm_source=KzWdp4_RAssZkVjXE6C7gw", "review_count": 44, "categories": [{"alias": "indpak", "title": "Indian"}, {"alias": "buffets", "title": "Buffets"}], "rating": 2.0, "coordinates": {"latitude": 43.0839808, "longitude": -79.0623837}, "transactions": [], "price": "$$", "location": {"address1": "24 Buffalo Ave", "address2": "", "address3": "", "city": "Niagara Falls", "zip_code": "14303", "country": "US", "state": "NY", "display_address": ["24 Buffalo Ave", "Niagara Falls, NY 14303"]}, "phone": "", "display_phone": "", "distance": 26740.014572701624}, {"id": "QwcOqeTr9-9_sCUFrnaYPg", "alias": "the-guru-fine-indian-cuisine-niagara-falls", "name": "The Guru Fine Indian Cuisine", "image_url": "https://s3-media2.fl.yelpcdn.com/bphoto/kEcpz5SSNT4DGnZKrXu7Hg/o.jpg", "is_closed": false, "url": "https://www.yelp.com/biz/the-guru-fine-indian-cuisine-niagara-falls?adjust_creative=KzWdp4_RAssZkVjXE6C7gw&utm_campaign=yelp_api_v3&utm_medium=api_v3_business_search&utm_source=KzWdp4_RAssZkVjXE6C7gw", "review_count": 164, "categories": [{"alias": "indpak", "title": "Indian"}], "rating": 3.0, "coordinates": {"latitude": 43.09259, "longitude": -79.07586}, "transactions": [], "price": "$$", "location": {"address1": "5705 Victoria Ave", "address2": "", "address3": "", "city": "Niagara Falls", "zip_code": "L2G 3L5", "country": "CA", "state": "ON", "display_address": ["5705 Victoria Ave", "Niagara Falls, ON L2G 3L5", "Canada"]}, "phone": "+19053543444", "display_phone": "+1 905-354-3444", "distance": 28180.631419212245}, {"id": "yesMpuTpQND1slL2Bm6ZTA", "alias": "maharaja-restaurant-niagara-falls", "name": "Maharaja Restaurant", "image_url": "https://s3-media1.fl.yelpcdn.com/bphoto/yY5ot5qOZuKK-TEYSebOfw/o.jpg", "is_closed": false, "url": "https://www.yelp.com/biz/maharaja-restaurant-niagara-falls?adjust_creative=KzWdp4_RAssZkVjXE6C7gw&utm_campaign=yelp_api_v3&utm_medium=api_v3_business_search&utm_source=KzWdp4_RAssZkVjXE6C7gw", "review_count": 90, "categories": [{"alias": "indpak", "title": "Indian"}], "rating": 2.5, "coordinates": {"latitude": 43.0839364, "longitude": -79.0597313}, "transactions": ["delivery", "pickup"], "price": "$$", "location": {"address1": "295 Rainbow Blvd", "address2": "", "address3": "", "city": "Niagara Falls", "zip_code": "14303", "country": "US", "state": "NY", "display_address": ["295 Rainbow Blvd", "Niagara Falls, NY 14303"]}, "phone": "+17162990332", "display_phone": "(716) 299-0332", "distance": 26573.699701861682}, {"id": "yoSwGFwfq9TIEzMQLpCfWQ", "alias": "hakkalicious-niagara-niagara-falls", "name": "Hakkalicious Niagara", "image_url": "https://s3-media1.fl.yelpcdn.com/bphoto/93eMQvKpPiNlq-rp3lDNsg/o.jpg", "is_closed": false, "url": "https://www.yelp.com/biz/hakkalicious-niagara-niagara-falls?adjust_creative=KzWdp4_RAssZkVjXE6C7gw&utm_campaign=yelp_api_v3&utm_medium=api_v3_business_search&utm_source=KzWdp4_RAssZkVjXE6C7gw", "review_count": 11, "categories": [{"alias": "indpak", "title": "Indian"}, {"alias": "chinese", "title": "Chinese"}], "rating": 3.5, "coordinates": {"latitude": 43.09027151414305, "longitude": -79.07884194525977}, "transactions": [], "location": {"address1": "5932 Victoria Ave", "address2": "", "address3": null, "city": "Niagara Falls", "zip_code": "L2G 3L6", "country": "CA", "state": "ON", "display_address": ["5932 Victoria Ave", "Niagara Falls, ON L2G 3L6", "Canada"]}, "phone": "+19053712002", "display_phone": "+1 905-371-2002", "distance": 28211.854440275252}, {"id": "wL73VR7ltH6ZOMDN-Y9_MQ", "alias": "maharaja-grand-niagara-falls", "name": "Maharaja Grand", "image_url": "https://s3-media4.fl.yelpcdn.com/bphoto/CGE6ocVhQKVOV2u3CmjeKw/o.jpg", "is_closed": false, "url": "https://www.yelp.com/biz/maharaja-grand-niagara-falls?adjust_creative=KzWdp4_RAssZkVjXE6C7gw&utm_campaign=yelp_api_v3&utm_medium=api_v3_business_search&utm_source=KzWdp4_RAssZkVjXE6C7gw", "review_count": 16, "categories": [{"alias": "indpak", "title": "Indian"}, {"alias": "steak", "title": "Steakhouses"}, {"alias": "desserts", "title": "Desserts"}], "rating": 2.0, "coordinates": {"latitude": 43.0924432157553, "longitude": -79.0767414847943}, "transactions": [], "price": "$$$", "location": {"address1": "5019 Centre Street", "address2": "", "address3": null, "city": "Niagara Falls", "zip_code": "L2G 3N6", "country": "CA", "state": "ON", "display_address": ["5019 Centre Street", "Niagara Falls, ON L2G 3N6", "Canada"]}, "phone": "+19053567444", "display_phone": "+1 905-356-7444", "distance": 28237.64859385246}, {"id": "94ANMvMr9504GBIBfkIJ7Q", "alias": "bombay-cuisine-niagara-falls", "name": "Bombay Cuisine", "image_url": "", "is_closed": false, "url": "https://www.yelp.com/biz/bombay-cuisine-niagara-falls?adjust_creative=KzWdp4_RAssZkVjXE6C7gw&utm_campaign=yelp_api_v3&utm_medium=api_v3_business_search&utm_source=KzWdp4_RAssZkVjXE6C7gw", "review_count": 1, "categories": [{"alias": "indpak", "title": "Indian"}], "rating": 3.0, "coordinates": {"latitude": 43.094744, "longitude": -78.956474}, "transactions": [], "location": {"address1": "9400 Niagara Falls Blvd", "address2": "", "address3": "", "city": "Niagara Falls", "zip_code": "14304", "country": "US", "state": "NY", "display_address": ["9400 Niagara Falls Blvd", "Niagara Falls, NY 14304"]}, "phone": "+17162367778", "display_phone": "(716) 236-7778", "distance": 21984.55744907963}, {"id": "JGsTIMzrOFEiOFaBRlF5gA", "alias": "mela-indian-restaurant-niagara-falls", "name": "Mela Indian Restaurant", "image_url": "", "is_closed": false, "url": "https://www.yelp.com/biz/mela-indian-restaurant-niagara-falls?adjust_creative=KzWdp4_RAssZkVjXE6C7gw&utm_campaign=yelp_api_v3&utm_medium=api_v3_business_search&utm_source=KzWdp4_RAssZkVjXE6C7gw", "review_count": 4, "categories": [{"alias": "indpak", "title": "Indian"}, {"alias": "newamerican", "title": "American (New)"}], "rating": 1.5, "coordinates": {"latitude": 43.0840988, "longitude": -79.0623093}, "transactions": [], "location": {"address1": "24 Buffalo Ave", "address2": "", "address3": "", "city": "Niagara Falls", "zip_code": "14303", "country": "US", "state": "NY", "display_address": ["24 Buffalo Ave", "Niagara Falls, NY 14303"]}, "phone": "", "display_phone": "", "distance": 26744.855665856532}, {"id": "8b32gWkVdueVgE9eq7K3jA", "alias": "a-1-dosa-hut-niagara-falls", "name": "A-1 Dosa Hut", "image_url": "", "is_closed": false, "url": "https://www.yelp.com/biz/a-1-dosa-hut-niagara-falls?adjust_creative=KzWdp4_RAssZkVjXE6C7gw&utm_campaign=yelp_api_v3&utm_medium=api_v3_business_search&utm_source=KzWdp4_RAssZkVjXE6C7gw", "review_count": 14, "categories": [{"alias": "indpak", "title": "Indian"}], "rating": 1.5, "coordinates": {"latitude": 43.08929, "longitude": -79.0589}, "transactions": [], "price": "$$", "location": {"address1": "427 3rd St", "address2": "", "address3": "", "city": "Niagara Falls", "zip_code": "14301", "country": "US", "state": "NY", "display_address": ["427 3rd St", "Niagara Falls, NY 14301"]}, "phone": "", "display_phone": "", "distance": 26920.45456230292}, {"id": "1xnk1X5qfC2yoCj_EXxFag", "alias": "india-kitchen-niagara-falls", "name": "India Kitchen", "image_url": "https://s3-media2.fl.yelpcdn.com/bphoto/CrXVGKluIvDaPYkbD4NXQA/o.jpg", "is_closed": false, "url": "https://www.yelp.com/biz/india-kitchen-niagara-falls?adjust_creative=KzWdp4_RAssZkVjXE6C7gw&utm_campaign=yelp_api_v3&utm_medium=api_v3_business_search&utm_source=KzWdp4_RAssZkVjXE6C7gw", "review_count": 24, "categories": [{"alias": "indpak", "title": "Indian"}], "rating": 1.5, "coordinates": {"latitude": 43.08374, "longitude": -79.05813}, "transactions": [], "price": "$$", "location": {"address1": "360 Rainbow Blvd", "address2": "", "address3": "", "city": "Niagara Falls", "zip_code": "14303", "country": "US", "state": "NY", "display_address": ["360 Rainbow Blvd", "Niagara Falls, NY 14303"]}, "phone": "+17162858155", "display_phone": "(716) 285-8155", "distance": 27100.098666738744}, {"id": "YeulOE9RsMA5s7AnyrI09Q", "alias": "fallsview-buffet-niagara-falls", "name": "Fallsview Buffet", "image_url": "https://s3-media4.fl.yelpcdn.com/bphoto/xd1ggjeGOA4N294igwR-EA/o.jpg", "is_closed": false, "url": "https://www.yelp.com/biz/fallsview-buffet-niagara-falls?adjust_creative=KzWdp4_RAssZkVjXE6C7gw&utm_campaign=yelp_api_v3&utm_medium=api_v3_business_search&utm_source=KzWdp4_RAssZkVjXE6C7gw", "review_count": 91, "categories": [{"alias": "buffets", "title": "Buffets"}], "rating": 3.0, "coordinates": {"latitude": 43.09111, "longitude": -79.07282}, "transactions": [], "price": "$$$", "location": {"address1": "5875 Falls Avenue", "address2": "", "address3": "Sheraton Fallsview Hotel", "city": "Niagara Falls", "zip_code": "L2G 3K7", "country": "CA", "state": "ON", "display_address": ["5875 Falls Avenue", "Sheraton Fallsview Hotel", "Niagara Falls, ON L2G 3K7", "Canada"]}, "phone": "+19053744445", "display_phone": "+1 905-374-4445", "distance": 27899.243118787515}, {"id": "HpfFyF_cp2aG5fpRBggabg", "alias": "passage-to-india-niagara-falls-2", "name": "Passage to India", "image_url": "https://s3-media3.fl.yelpcdn.com/bphoto/5gNCPnyG_Pl63HGcXhrVRw/o.jpg", "is_closed": false, "url": "https://www.yelp.com/biz/passage-to-india-niagara-falls-2?adjust_creative=KzWdp4_RAssZkVjXE6C7gw&utm_campaign=yelp_api_v3&utm_medium=api_v3_business_search&utm_source=KzWdp4_RAssZkVjXE6C7gw", "review_count": 45, "categories": [{"alias": "indpak", "title": "Indian"}, {"alias": "pakistani", "title": "Pakistani"}], "rating": 3.5, "coordinates": {"latitude": 43.086262, "longitude": -79.084915}, "transactions": [], "price": "$$", "location": {"address1": "1-5546 Robinson St", "address2": "", "address3": "", "city": "Niagara Falls", "zip_code": "L2G 2A8", "country": "CA", "state": "ON", "display_address": ["1-5546 Robinson St", "Niagara Falls, ON L2G 2A8", "Canada"]}, "phone": "+19053713444", "display_phone": "+1 905-371-3444", "distance": 28311.44058525891}]